{
 "title": "Карта «Бессонницы—2026»",
 "mapUrl": "https://www.google.com/maps/d/viewer?mid=1ImxgvK4d6XoIuTXzKlhjGs2Cdv4MrNg",
 "layers": [
  {
   "name": "Аттракторы со звуком",
   "points": [
    {
     "name": "Экран полевой",
     "desc": "",
     "lat": 54.681149,
     "lng": 35.091007
    },
    {
     "name": "ЦУЭ полевой",
     "desc": "",
     "lat": 54.68085,
     "lng": 35.091369
    },
    {
     "name": "Экран речной",
     "desc": "",
     "lat": 54.678019,
     "lng": 35.083323
    },
    {
     "name": "ЦУЭ речной",
     "desc": "",
     "lat": 54.678251,
     "lng": 35.083568
    },
    {
     "name": "Экран детский",
     "desc": "",
     "lat": 54.682844,
     "lng": 35.095532
    },
    {
     "name": "ЦУЭ детский",
     "desc": "",
     "lat": 54.682857,
     "lng": 35.095346
    },
    {
     "name": "Музыкальная сцена",
     "desc": "",
     "lat": 54.676369,
     "lng": 35.090576
    },
    {
     "name": "Театр в тумане",
     "desc": "",
     "lat": 54.678672,
     "lng": 35.080303
    },
    {
     "name": "Танцплощадка",
     "desc": "",
     "lat": 54.679023,
     "lng": 35.093653
    },
    {
     "name": "Кинобар",
     "desc": "",
     "lat": 54.68775,
     "lng": 35.093983
    },
    {
     "name": "Диафильминариум",
     "desc": "",
     "lat": 54.682514,
     "lng": 35.09372
    },
    {
     "name": "Либерталия Бар",
     "desc": "",
     "lat": 54.677125,
     "lng": 35.086299
    },
    {
     "name": "ГармониСтан",
     "desc": "",
     "lat": 54.684314,
     "lng": 35.09604
    },
    {
     "name": "Сцена (уточняется)",
     "desc": "",
     "lat": 54.686847,
     "lng": 35.095552
    },
    {
     "name": "Безделика",
     "desc": "",
     "lat": 54.681065,
     "lng": 35.093537
    }
   ]
  },
  {
   "name": "Еда",
   "points": [
    {
     "name": "Фудкорт",
     "desc": "",
     "lat": 54.678741,
     "lng": 35.091922
    },
    {
     "name": "Кафе \"Эль-Стэйко\"",
     "desc": "",
     "lat": 54.680977,
     "lng": 35.08829
    },
    {
     "name": "Кафе \"Детка\"",
     "desc": "",
     "lat": 54.683293,
     "lng": 35.094908
    },
    {
     "name": "Души. Чайная",
     "desc": "",
     "lat": 54.681441,
     "lng": 35.095134
    },
    {
     "name": "Какао Темпл",
     "desc": "",
     "lat": 54.677352,
     "lng": 35.08524
    },
    {
     "name": "Кафе-кальянная \"Кусь и Нотус\"",
     "desc": "",
     "lat": 54.678437,
     "lng": 35.08191
    },
    {
     "name": "Чайная \"Топь\"",
     "desc": "",
     "lat": 54.679152,
     "lng": 35.078755
    },
    {
     "name": "Кафе \"Облако Вкуса\"",
     "desc": "",
     "lat": 54.681499,
     "lng": 35.082592
    }
   ]
  },
  {
   "name": "Туалеты",
   "points": [
    {
     "name": "Туалет",
     "desc": "",
     "lat": 54.691318,
     "lng": 35.058151
    },
    {
     "name": "Туалет",
     "desc": "",
     "lat": 54.686095,
     "lng": 35.072802
    },
    {
     "name": "Туалет",
     "desc": "",
     "lat": 54.681381,
     "lng": 35.083463
    },
    {
     "name": "Туалет",
     "desc": "",
     "lat": 54.683025,
     "lng": 35.089818
    },
    {
     "name": "Туалет",
     "desc": "",
     "lat": 54.680432,
     "lng": 35.08757
    },
    {
     "name": "Туалет",
     "desc": "",
     "lat": 54.681843,
     "lng": 35.091306
    },
    {
     "name": "Туалет",
     "desc": "",
     "lat": 54.682698,
     "lng": 35.09446
    },
    {
     "name": "Туалет",
     "desc": "",
     "lat": 54.683909,
     "lng": 35.095553
    },
    {
     "name": "Туалет",
     "desc": "",
     "lat": 54.685556,
     "lng": 35.095173
    },
    {
     "name": "Туалет",
     "desc": "",
     "lat": 54.686926,
     "lng": 35.094224
    },
    {
     "name": "Туалет",
     "desc": "",
     "lat": 54.6807,
     "lng": 35.095138
    },
    {
     "name": "Туалет",
     "desc": "",
     "lat": 54.676011,
     "lng": 35.094951
    },
    {
     "name": "Туалет",
     "desc": "",
     "lat": 54.676354,
     "lng": 35.091875
    },
    {
     "name": "Туалет",
     "desc": "",
     "lat": 54.67941,
     "lng": 35.078153
    },
    {
     "name": "Туалет",
     "desc": "",
     "lat": 54.681347,
     "lng": 35.077708
    },
    {
     "name": "Туалет",
     "desc": "",
     "lat": 54.679348,
     "lng": 35.080805
    },
    {
     "name": "Туалет",
     "desc": "",
     "lat": 54.678741,
     "lng": 35.083232
    },
    {
     "name": "Туалет",
     "desc": "",
     "lat": 54.679236,
     "lng": 35.086073
    }
   ]
  },
  {
   "name": "Арт-объекты",
   "points": [
    {
     "name": "Арт-объект \"Грот\"",
     "desc": "",
     "lat": 54.683608,
     "lng": 35.094968
    },
    {
     "name": "Арт-объект \"Месяц\"",
     "desc": "",
     "lat": 54.682667,
     "lng": 35.096345
    },
    {
     "name": "Затмение. Катилось колесо",
     "desc": "",
     "lat": 54.677863,
     "lng": 35.096949
    },
    {
     "name": "Затмение. Смотри!",
     "desc": "",
     "lat": 54.677397,
     "lng": 35.090391
    },
    {
     "name": "Затмение. Звук ветра",
     "desc": "",
     "lat": 54.678131,
     "lng": 35.093575
    },
    {
     "name": "Затмение. Жар-Птица",
     "desc": "",
     "lat": 54.676676,
     "lng": 35.092368
    },
    {
     "name": "Затмение. Воздушная скульптура «Тело ветра»",
     "desc": "",
     "lat": 54.68064,
     "lng": 35.089557
    },
    {
     "name": "Затмение. Рыбы",
     "desc": "",
     "lat": 54.678584,
     "lng": 35.086854
    },
    {
     "name": "Затмение. Спящая русалка",
     "desc": "",
     "lat": 54.679497,
     "lng": 35.096111
    },
    {
     "name": "Затмение. Фестиваль сЛиззи",
     "desc": "",
     "lat": 54.678634,
     "lng": 35.07892
    },
    {
     "name": "Затмение. Фурин-фуга",
     "desc": "",
     "lat": 54.677049,
     "lng": 35.0965
    },
    {
     "name": "Затмение. Ступени к свету",
     "desc": "",
     "lat": 54.68013,
     "lng": 35.092303
    },
    {
     "name": "Затмение. Телескоппарат",
     "desc": "",
     "lat": 54.681635,
     "lng": 35.093867
    }
   ]
  },
  {
   "name": "Платные услуги",
   "points": [
    {
     "name": "Лагерь “Байка”",
     "desc": "",
     "lat": 54.68105,
     "lng": 35.086156
    },
    {
     "name": "Лагерь “Детская Байка”",
     "desc": "",
     "lat": 54.681961,
     "lng": 35.088783
    },
    {
     "name": "Автокемпинг",
     "desc": "",
     "lat": 54.68148,
     "lng": 35.084931
    },
    {
     "name": "Автокемпинг. Ресепшн",
     "desc": "",
     "lat": 54.681214,
     "lng": 35.084589
    },
    {
     "name": "Площадка для автодомов",
     "desc": "",
     "lat": 54.679814,
     "lng": 35.084338
    },
    {
     "name": "Души",
     "desc": "",
     "lat": 54.681402,
     "lng": 35.09552
    },
    {
     "name": "Отель “Караван”",
     "desc": "",
     "lat": 54.680071,
     "lng": 35.079215
    },
    {
     "name": "Отель “Караван”. Души",
     "desc": "",
     "lat": 54.679792,
     "lng": 35.077865
    },
    {
     "name": "Гостиница Wonder Way",
     "desc": "",
     "lat": 54.681623,
     "lng": 35.077269
    },
    {
     "name": "Прокат тур. снаряжения RentCamp",
     "desc": "",
     "lat": 54.68004,
     "lng": 35.086154
    },
    {
     "name": "Мотолагерь",
     "desc": "",
     "lat": 54.681923,
     "lng": 35.081833
    },
    {
     "name": "Прокат сапбордов",
     "desc": "",
     "lat": 54.682617,
     "lng": 35.074836
    }
   ]
  },
  {
   "name": "Аттракторы без звука",
   "points": [
    {
     "name": "Инфоцентр",
     "desc": "",
     "lat": 54.679776,
     "lng": 35.089103
    },
    {
     "name": "Точка Сборки",
     "desc": "",
     "lat": 54.680044,
     "lng": 35.090937
    },
    {
     "name": "Детская Поляна",
     "desc": "",
     "lat": 54.683324,
     "lng": 35.09568
    },
    {
     "name": "Детский сад",
     "desc": "",
     "lat": 54.68345,
     "lng": 35.095613
    },
    {
     "name": "Крылья",
     "desc": "",
     "lat": 54.682932,
     "lng": 35.09543
    },
    {
     "name": "Детский шатер",
     "desc": "",
     "lat": 54.682517,
     "lng": 35.0953
    },
    {
     "name": "Ярмарка",
     "desc": "",
     "lat": 54.678621,
     "lng": 35.089368
    },
    {
     "name": "Ярмарочная чильня",
     "desc": "",
     "lat": 54.678466,
     "lng": 35.089081
    },
    {
     "name": "Ярмарка.Табуретошная",
     "desc": "",
     "lat": 54.678325,
     "lng": 35.0896
    },
    {
     "name": "Ярмарка. Барахолка",
     "desc": "",
     "lat": 54.67858,
     "lng": 35.090422
    },
    {
     "name": "Ярмарка.Титановый мерч",
     "desc": "",
     "lat": 54.678822,
     "lng": 35.090487
    },
    {
     "name": "Ярмарочная кузница",
     "desc": "",
     "lat": 54.67801,
     "lng": 35.090449
    },
    {
     "name": "Ярмарка.Открытые мастерские",
     "desc": "",
     "lat": 54.677716,
     "lng": 35.084433
    },
    {
     "name": "Ярмарка керамики",
     "desc": "",
     "lat": 54.677558,
     "lng": 35.085055
    },
    {
     "name": "МастерSKYа",
     "desc": "",
     "lat": 54.676826,
     "lng": 35.087756
    },
    {
     "name": "Чудаукцион",
     "desc": "",
     "lat": 54.676943,
     "lng": 35.087434
    },
    {
     "name": "Хатифнариум",
     "desc": "",
     "lat": 54.6784,
     "lng": 35.08626
    },
    {
     "name": "Психологическая беседка. Полевая",
     "desc": "",
     "lat": 54.681114,
     "lng": 35.091474
    },
    {
     "name": "Накрывашка полевая",
     "desc": "",
     "lat": 54.680891,
     "lng": 35.090857
    },
    {
     "name": "Психологическая беседка. Речная",
     "desc": "",
     "lat": 54.67842,
     "lng": 35.083415
    },
    {
     "name": "Территория тела",
     "desc": "",
     "lat": 54.678258,
     "lng": 35.083915
    },
    {
     "name": "Костер у фудкорта",
     "desc": "",
     "lat": 54.678777,
     "lng": 35.091154
    },
    {
     "name": "Шатер Анимации",
     "desc": "",
     "lat": 54.67701,
     "lng": 35.088992
    },
    {
     "name": "Шатер Анимации Мастер-классы",
     "desc": "",
     "lat": 54.678366,
     "lng": 35.087453
    },
    {
     "name": "Шатёр \"Анимаквест\"",
     "desc": "",
     "lat": 54.679447,
     "lng": 35.091135
    },
    {
     "name": "Психологическая беседка. Игры",
     "desc": "",
     "lat": 54.678257,
     "lng": 35.085034
    },
    {
     "name": "Шатёр “Территория тела”",
     "desc": "",
     "lat": 54.679662,
     "lng": 35.094402
    },
    {
     "name": "Игротека",
     "desc": "",
     "lat": 54.682099,
     "lng": 35.091825
    },
    {
     "name": "Обсерватория",
     "desc": "",
     "lat": 54.678291,
     "lng": 35.095113
    },
    {
     "name": "Чайный терем",
     "desc": "",
     "lat": 54.676014,
     "lng": 35.093838
    },
    {
     "name": "Чайная Пагода",
     "desc": "",
     "lat": 54.677147,
     "lng": 35.096895
    },
    {
     "name": "Хозяин Вод",
     "desc": "",
     "lat": 54.677538,
     "lng": 35.092945
    },
    {
     "name": "Продакшн студия \"Белый Свет\"",
     "desc": "",
     "lat": 54.67936,
     "lng": 35.091111
    },
    {
     "name": "Кальянная Пилигрим",
     "desc": "",
     "lat": 54.686557,
     "lng": 35.094803
    },
    {
     "name": "Чайка",
     "desc": "",
     "lat": 54.677747,
     "lng": 35.08749
    },
    {
     "name": "Крепость Пуха",
     "desc": "",
     "lat": 54.676895,
     "lng": 35.094878
    },
    {
     "name": "Негамак",
     "desc": "",
     "lat": 54.681785,
     "lng": 35.09054
    },
    {
     "name": "Алхимическая Мастерская",
     "desc": "",
     "lat": 54.68585,
     "lng": 35.095596
    },
    {
     "name": "Набережная у моста",
     "desc": "",
     "lat": 54.678967,
     "lng": 35.096188
    },
    {
     "name": "Локус Солус",
     "desc": "",
     "lat": 54.676157,
     "lng": 35.092505
    },
    {
     "name": "Баня Гавань Дрёмы",
     "desc": "",
     "lat": 54.681705,
     "lng": 35.076113
    }
   ]
  },
  {
   "name": "Административные объекты",
   "points": [
    {
     "name": "Главный административный лагерь",
     "desc": "",
     "lat": 54.67946,
     "lng": 35.082422
    },
    {
     "name": "Административный лагерь",
     "desc": "",
     "lat": 54.681919,
     "lng": 35.086088
    },
    {
     "name": "Сокровищница Хатифнаттов",
     "desc": "",
     "lat": 54.680985,
     "lng": 35.081438
    },
    {
     "name": "Медпункт",
     "desc": "",
     "lat": 54.681378,
     "lng": 35.089335
    },
    {
     "name": "Административный лагерь",
     "desc": "",
     "lat": 54.681541,
     "lng": 35.089307
    },
    {
     "name": "Парковка. Верхнее поле",
     "desc": "",
     "lat": 54.687149,
     "lng": 35.071634
    },
    {
     "name": "Парковка. Нижнее поле",
     "desc": "",
     "lat": 54.680374,
     "lng": 35.084447
    },
    {
     "name": "КПП-1",
     "desc": "",
     "lat": 54.691501,
     "lng": 35.059099
    },
    {
     "name": "КПП-1,5",
     "desc": "",
     "lat": 54.685972,
     "lng": 35.072594
    },
    {
     "name": "КПП-2",
     "desc": "",
     "lat": 54.680485,
     "lng": 35.086377
    },
    {
     "name": "Верхний вход в Северный Город",
     "desc": "",
     "lat": 54.685567,
     "lng": 35.073799
    },
    {
     "name": "Нижний вход в Северный Город",
     "desc": "",
     "lat": 54.681431,
     "lng": 35.083611
    },
    {
     "name": "Административный лагерь",
     "desc": "",
     "lat": 54.682008,
     "lng": 35.09096
    },
    {
     "name": "Территории свободного кемпинга. Северный Город",
     "desc": "",
     "lat": 54.683441,
     "lng": 35.082028
    },
    {
     "name": "Территории свободного кемпинга. Северо-Восток",
     "desc": "",
     "lat": 54.6847,
     "lng": 35.090322
    },
    {
     "name": "Административный лагерь",
     "desc": "",
     "lat": 54.676539,
     "lng": 35.088703
    },
    {
     "name": "Административный лагерь",
     "desc": "",
     "lat": 54.683787,
     "lng": 35.094077
    },
    {
     "name": "Административный лагерь",
     "desc": "",
     "lat": 54.675969,
     "lng": 35.091027
    },
    {
     "name": "Административный лагерь",
     "desc": "",
     "lat": 54.684526,
     "lng": 35.094774
    },
    {
     "name": "Административный лагерь",
     "desc": "",
     "lat": 54.680653,
     "lng": 35.080037
    },
    {
     "name": "Административный лагерь",
     "desc": "",
     "lat": 54.678433,
     "lng": 35.080288
    },
    {
     "name": "Административный лагерь",
     "desc": "",
     "lat": 54.680403,
     "lng": 35.07956
    },
    {
     "name": "Административный лагерь",
     "desc": "",
     "lat": 54.682958,
     "lng": 35.092629
    },
    {
     "name": "Административный лагерь",
     "desc": "",
     "lat": 54.682372,
     "lng": 35.092624
    },
    {
     "name": "Административный лагерь",
     "desc": "",
     "lat": 54.682662,
     "lng": 35.091318
    },
    {
     "name": "Административный лагерь",
     "desc": "",
     "lat": 54.687413,
     "lng": 35.093123
    },
    {
     "name": "Административный лагерь",
     "desc": "",
     "lat": 54.683666,
     "lng": 35.094854
    },
    {
     "name": "Административный лагерь",
     "desc": "",
     "lat": 54.682609,
     "lng": 35.089519
    },
    {
     "name": "Административный лагерь",
     "desc": "",
     "lat": 54.682813,
     "lng": 35.093422
    },
    {
     "name": "Административный лагерь",
     "desc": "",
     "lat": 54.676942,
     "lng": 35.086135
    },
    {
     "name": "Административный лагерь",
     "desc": "",
     "lat": 54.675599,
     "lng": 35.093484
    },
    {
     "name": "Административный лагерь",
     "desc": "",
     "lat": 54.675966,
     "lng": 35.095899
    },
    {
     "name": "Административный лагерь",
     "desc": "",
     "lat": 54.680933,
     "lng": 35.080558
    },
    {
     "name": "Административный лагерь",
     "desc": "",
     "lat": 54.680923,
     "lng": 35.087635
    },
    {
     "name": "Административный лагерь",
     "desc": "",
     "lat": 54.679638,
     "lng": 35.077323
    },
    {
     "name": "Административный лагерь",
     "desc": "",
     "lat": 54.684928,
     "lng": 35.094911
    },
    {
     "name": "Административный лагерь",
     "desc": "",
     "lat": 54.682162,
     "lng": 35.090314
    },
    {
     "name": "Административный лагерь",
     "desc": "",
     "lat": 54.677292,
     "lng": 35.08499
    },
    {
     "name": "Административный лагерь",
     "desc": "",
     "lat": 54.684326,
     "lng": 35.094024
    },
    {
     "name": "Административный лагерь",
     "desc": "",
     "lat": 54.676802,
     "lng": 35.086519
    },
    {
     "name": "Административный лагерь",
     "desc": "",
     "lat": 54.67823,
     "lng": 35.081544
    },
    {
     "name": "Административный лагерь",
     "desc": "",
     "lat": 54.679005,
     "lng": 35.07839
    },
    {
     "name": "Административный лагерь",
     "desc": "",
     "lat": 54.684814,
     "lng": 35.094221
    },
    {
     "name": "Административный лагерь",
     "desc": "",
     "lat": 54.686369,
     "lng": 35.094162
    },
    {
     "name": "Административный лагерь",
     "desc": "",
     "lat": 54.686667,
     "lng": 35.093376
    },
    {
     "name": "Административный лагерь",
     "desc": "",
     "lat": 54.684084,
     "lng": 35.093767
    },
    {
     "name": "Административный лагерь",
     "desc": "",
     "lat": 54.685819,
     "lng": 35.094266
    },
    {
     "name": "Административный лагерь",
     "desc": "",
     "lat": 54.675659,
     "lng": 35.092464
    },
    {
     "name": "Контора ярмарки и фудкорта",
     "desc": "",
     "lat": 54.678876,
     "lng": 35.090548
    }
   ]
  }
 ],
 "venuePoints": {
  "HarmonyStan": {
   "lat": 54.684314,
   "lng": 35.09604,
   "point": "ГармониСтан"
  },
  "HarmonyStan / HarmonyStan": {
   "lat": 54.684314,
   "lng": 35.09604,
   "point": "ГармониСтан"
  },
  "Алхимическая мастерская": {
   "lat": 54.68585,
   "lng": 35.095596,
   "point": "Алхимическая Мастерская"
  },
  "Безделика": {
   "lat": 54.681065,
   "lng": 35.093537,
   "point": "Безделика"
  },
  "Детская поляна": {
   "lat": 54.683324,
   "lng": 35.09568,
   "point": "Детская Поляна"
  },
  "Детская поляна / Домик Енота": {
   "lat": 54.683324,
   "lng": 35.09568,
   "point": "Детская Поляна"
  },
  "Детская поляна / Поляна для фехтования": {
   "lat": 54.683324,
   "lng": 35.09568,
   "point": "Детская Поляна"
  },
  "Детская поляна. Крылья / Левое крыло": {
   "lat": 54.683324,
   "lng": 35.09568,
   "point": "Детская Поляна"
  },
  "Детская поляна. Крылья / Правое крыло": {
   "lat": 54.683324,
   "lng": 35.09568,
   "point": "Детская Поляна"
  },
  "Детская поляна. Шатер": {
   "lat": 54.683324,
   "lng": 35.09568,
   "point": "Детская Поляна"
  },
  "Детский сад": {
   "lat": 54.68345,
   "lng": 35.095613,
   "point": "Детский сад"
  },
  "Детский экран (2026)": {
   "lat": 54.682844,
   "lng": 35.095532,
   "point": "Экран детский"
  },
  "Диафильминариум": {
   "lat": 54.682514,
   "lng": 35.09372,
   "point": "Диафильминариум"
  },
  "Жар-птица": {
   "lat": 54.676676,
   "lng": 35.092368,
   "point": "Затмение. Жар-Птица"
  },
  "Крепость Пуха": {
   "lat": 54.676895,
   "lng": 35.094878,
   "point": "Крепость Пуха"
  },
  "Крепость Пуха / Башня": {
   "lat": 54.676895,
   "lng": 35.094878,
   "point": "Крепость Пуха"
  },
  "Крепость Пуха / Домик-Рандомик": {
   "lat": 54.676895,
   "lng": 35.094878,
   "point": "Крепость Пуха"
  },
  "Либерталия": {
   "lat": 54.677125,
   "lng": 35.086299,
   "point": "Либерталия Бар"
  },
  "Обсерватория / Зона мастер-классов": {
   "lat": 54.678291,
   "lng": 35.095113,
   "point": "Обсерватория"
  },
  "Обсерватория / Купол «Обсерватории»": {
   "lat": 54.678291,
   "lng": 35.095113,
   "point": "Обсерватория"
  },
  "Обсерватория / Лекторий": {
   "lat": 54.678291,
   "lng": 35.095113,
   "point": "Обсерватория"
  },
  "Полевой экран (2026)": {
   "lat": 54.681149,
   "lng": 35.091007,
   "point": "Экран полевой"
  },
  "Психологическая беседка. Игры": {
   "lat": 54.678257,
   "lng": 35.085034,
   "point": "Психологическая беседка. Игры"
  },
  "Психологическая беседка. Полевая": {
   "lat": 54.681114,
   "lng": 35.091474,
   "point": "Психологическая беседка. Полевая"
  },
  "Психологическая беседка. Речная": {
   "lat": 54.67842,
   "lng": 35.083415,
   "point": "Психологическая беседка. Речная"
  },
  "Речной экран (2026)": {
   "lat": 54.678019,
   "lng": 35.083323,
   "point": "Экран речной"
  },
  "Сцена (уточняется)": {
   "lat": 54.686847,
   "lng": 35.095552,
   "point": "Сцена (уточняется)"
  },
  "Табуретошная": {
   "lat": 54.678325,
   "lng": 35.0896,
   "point": "Ярмарка.Табуретошная"
  },
  "Танцплощадка": {
   "lat": 54.679023,
   "lng": 35.093653,
   "point": "Танцплощадка"
  },
  "Театр в тумане": {
   "lat": 54.678672,
   "lng": 35.080303,
   "point": "Театр в тумане"
  },
  "Территория тела. Речная": {
   "lat": 54.678258,
   "lng": 35.083915,
   "point": "Территория тела"
  },
  "Территория тела. Шатер": {
   "lat": 54.679662,
   "lng": 35.094402,
   "point": "Шатёр “Территория тела”"
  },
  "Хатифнариум": {
   "lat": 54.6784,
   "lng": 35.08626,
   "point": "Хатифнариум"
  },
  "Хатифнариум / Малый шатер возле Хатифнариума": {
   "lat": 54.6784,
   "lng": 35.08626,
   "point": "Хатифнариум"
  },
  "Хатифнариум / Малый шатер рядом с Хатифнариумом": {
   "lat": 54.6784,
   "lng": 35.08626,
   "point": "Хатифнариум"
  },
  "Хатифнариум / Сбор возле Шатра": {
   "lat": 54.6784,
   "lng": 35.08626,
   "point": "Хатифнариум"
  },
  "Хатифнариум / Сбор рядом с шатром": {
   "lat": 54.6784,
   "lng": 35.08626,
   "point": "Хатифнариум"
  },
  "Хозяин вод": {
   "lat": 54.677538,
   "lng": 35.092945,
   "point": "Хозяин Вод"
  },
  "Чайка": {
   "lat": 54.677747,
   "lng": 35.08749,
   "point": "Чайка"
  },
  "Чайная «Топь»": {
   "lat": 54.679152,
   "lng": 35.078755,
   "point": "Чайная \"Топь\""
  },
  "Чайный терем / Сеновал": {
   "lat": 54.676014,
   "lng": 35.093838,
   "point": "Чайный терем"
  },
  "Чайный терем / Чайная Пагода": {
   "lat": 54.676014,
   "lng": 35.093838,
   "point": "Чайный терем"
  },
  "Шатер анимации": {
   "lat": 54.67701,
   "lng": 35.088992,
   "point": "Шатер Анимации"
  },
  "Шатер анимационных мастер-классов": {
   "lat": 54.678366,
   "lng": 35.087453,
   "point": "Шатер Анимации Мастер-классы"
  },
  "Ярмарка керамики. Открытые мастерские": {
   "lat": 54.677716,
   "lng": 35.084433,
   "point": "Ярмарка.Открытые мастерские"
  },
  "Ярмарка. Чильня": {
   "lat": 54.678466,
   "lng": 35.089081,
   "point": "Ярмарочная чильня"
  }
 }
}
